[
  {
    "address": "62 Avenue de la République, 75011 Paris, France",
    "name": "PSA Retail République",
    "phone": "0149296262",
    "shortname": "Citroen République",
    "bonus": "0",
    "active": true,
    "city": "Paris",
    "info": "Good luck!",
    "group": "PSA Retail Paris",
    "openHours": [["07:30", "18:30", "12:00", "13:30"],
                  ["07:30", "18:30", "12:00", "13:30"],
                  ["07:30", "18:30", "12:00", "13:30"],
                  ["07:30", "18:30", "12:00", "13:30"],
                  ["07:30", "17:30", "12:00", "13:30"]],
    "volAfterSales": "10",
    "volVN": "20",
    "volVO": "30",
    "comment": "They like cupcakes"
  },
  {
    "address": "68 Avenue de la Division Leclerc, 93500 Pantin, France",
    "name": "PSA Retail Pantin",
    "phone": "0183778397",
    "shortname": "Citroen Pantin",
    "bonus": "0",
    "active": true,
    "city": "Paris",
    "info": "Good luck!",
    "group": "PSA Retail Paris",
    "openHours": [["07:30", "17:45", "12:30", "13:30"],
                  ["07:30", "17:45", "12:30", "13:30"],
                  ["07:30", "17:45", "12:30", "13:30"],
                  ["07:30", "17:45", "12:30", "13:30"],
                  ["07:30", "17:30", "12:30", "13:30"]],
    "volAfterSales": "10",
    "volVN": "20",
    "volVO": "30",
    "comment": "They hate cupcakes"
  },
  {
    "address": "62 Avenue de la République, 75011 Paris, France",
    "name": "PSA Retail St-Quentin-en-Yvelines",
    "phone": "0130139292",
    "shortname": "Citroen St-Quentin-en-Yvelines",
    "bonus": "0",
    "active": true,
    "city": "Paris",
    "info": "Good luck!",
    "group": "PSA Retail Paris",
    "openHours": [["07:30", "18:15", "12:00", "13:30"],
                  ["07:30", "18:15", "12:00", "13:30"],
                  ["07:30", "18:15", "12:00", "13:30"],
                  ["07:30", "18:15", "12:00", "13:30"],
                  ["07:30", "18:00", "12:00", "13:30"]],
    "volAfterSales": "10",
    "volVN": "20",
    "volVO": "30",
    "comment": "They love cupcakes"
  },
  {
    "address": "29 Quai de Grenelle, 75015 Paris, France",
    "name": "RRG Grenelle",
    "phone": "0144372016",
    "shortname": "Renault Grenelle",
    "bonus": "0",
    "active": true,
    "city": "Paris",
    "info": "Good luck!",
    "group": "Renault Paris",
    "openHours": [["07:00", "20:30"],
                  ["07:00", "20:30"],
                  ["07:00", "20:30"],
                  ["07:00", "20:30"],
                  ["07:00", "19:30"],
                  ["07:30", "18:00"]],
    "volAfterSales": "10",
    "volVN": "20",
    "volVO": "30",
    "comment": "They dislike cupcakes"
  },
  {
    "address": "13 Avenue du Général Leclerc, 93500 Pantin, France",
    "name": "RRG Pantin",
    "phone": "0149296262",
    "shortname": "Renault République",
    "bonus": "0",
    "active": true,
    "city": "Paris",
    "info": "Good luck!",
    "group": "Renault Paris",
    "openHours": [["07:30", "20:00"],
                  ["07:30", "20:00"],
                  ["07:30", "20:00"],
                  ["07:30", "20:00"],
                  ["07:30", "20:00"],
                  ["09:00", "20:00"],
                  ["09:00", "20:00"]],
    "volAfterSales": "10",
    "volVN": "20",
    "volVO": "30",
    "comment": "They loathe cupcakes"
  },
  {
    "address": "23 Boulevard de Courcelles, 75008 Paris, France",
    "name": "RRG Courcelles",
    "phone": "0153536060",
    "shortname": "Renault Courcelles",
    "bonus": "0",
    "active": true,
    "city": "Paris",
    "info": "Good luck!",
    "group": "Renault Paris",
    "openHours": [["07:30", "18:00", "12:00", "14:00"],
                  ["07:30", "18:00"," 12:00", "14:00"],
                  ["07:30", "18:00", "12:00", "14:00"],
                  ["07:30", "18:00", "12:00", "14:00"],
                  ["07:30", "17:00", "12:00", "14:00"]],
    "volAfterSales": "10",
    "volVN": "20",
    "volVO": "30",
    "comment": "They cherish cupcakes"
  },
  {
    "address": "62 Avenue de la République, 75011 Paris, France",
    "name": "DS Store République",
    "phone": "0149296262",
    "shortname": "DS Store République",
    "bonus": "0",
    "active": true,
    "city": "Paris",
    "info": "Good luck!",
    "group": "PSA Retail Paris",
    "openHours": [["08:30", "19:00"],
                  ["08:30", "19:00"],
                  ["08:30", "19:00"],
                  ["08:30", "19:00"],
                  ["07:00", "19:00"]],
    "volAfterSales": "10",
    "volVN": "20",
    "volVO": "30",
    "comment": "They despise cupcakes"
  }
]
